{"business_id": "VqLfftBvRa4CrdcPGW26PA", "name": "Goodwill 0", "address": "2122 Freedom Dr", "city": "Charlotte", "state": "NC", "postal_code": "28208", "latitude": 35.2330855, "longitude": -80.8752355, "stars": 3.0, "review_count": 12, "is_open": 0, "attributes": {"BusinessAcceptsCreditCards": "True", "RestaurantsPriceRange2": "1", "BusinessParking": "{'garage': False, 'street': False, 'validated': False, 'lot': True, 'valet': False}", "BikeParking": "True"}, "categories": "Local Services, Community Service/Non-Profit", "hours": {"Monday": "8:0-16:0", "Tuesday": "8:0-16:0", "Wednesday": "8:0-16:0", "Thursday": "8:0-16:0", "Friday": "8:0-16:0"}}
{"business_id": "VqLfftBvRa4CrdcPGW26PA", "name": "Goodwill 1", "address": "2122 Freedom Dr", "city": "Charlotte", "state": "NC", "postal_code": "28208", "latitude": 35.2330855, "longitude": -80.9652355, "stars": 3.0, "review_count": 12, "is_open": 0, "attributes": {"BusinessAcceptsCreditCards": "True", "RestaurantsPriceRange2": "1", "BusinessParking": "{'garage': False, 'street': False, 'validated': False, 'lot': True, 'valet': False}", "BikeParking": "True"}, "categories": "Local Services, Community Service/Non-Profit", "hours": {"Monday": "8:0-16:0", "Tuesday": "8:0-16:0", "Wednesday": "8:0-16:0", "Thursday": "8:0-16:0", "Friday": "8:0-16:0"}}
{"business_id": "VqLfftBvRa4CrdcPGW26PA", "name": "Goodwill 2", "address": "2122 Freedom Dr", "city": "Charlotte", "state": "NC", "postal_code": "28208", "latitude": 35.2330855, "longitude": -80.9752355, "stars": 3.0, "review_count": 12, "is_open": 0, "attributes": {"BusinessAcceptsCreditCards": "True", "RestaurantsPriceRange2": "1", "BusinessParking": "{'garage': False, 'street': False, 'validated': False, 'lot': True, 'valet': False}", "BikeParking": "True"}, "categories": "Local Services, Community Service/Non-Profit", "hours": {"Monday": "8:0-16:0", "Tuesday": "8:0-16:0", "Wednesday": "8:0-16:0", "Thursday": "8:0-16:0", "Friday": "8:0-16:0"}}
{"business_id": "VqLfftBvRa4CrdcPGW26PA", "name": "Goodwill 3", "address": "2122 Freedom Dr", "city": "Charlotte", "state": "NC", "postal_code": "28208", "latitude": 35.2330855, "longitude": -80.9852355, "stars": 3.0, "review_count": 12, "is_open": 0, "attributes": {"BusinessAcceptsCreditCards": "True", "RestaurantsPriceRange2": "1", "BusinessParking": "{'garage': False, 'street': False, 'validated': False, 'lot': True, 'valet': False}", "BikeParking": "True"}, "categories": "Local Services, Community Service/Non-Profit", "hours": {"Monday": "8:0-16:0", "Tuesday": "8:0-16:0", "Wednesday": "8:0-16:0", "Thursday": "8:0-16:0", "Friday": "8:0-16:0"}}
{"business_id": "VqLfftBvRa4CrdcPGW26PA", "name": "Goodwill 4", "address": "2122 Freedom Dr", "city": "Charlotte", "state": "NC", "postal_code": "28208", "latitude": 35.2330855, "longitude": -80.9952355, "stars": 3.0, "review_count": 12, "is_open": 0, "attributes": {"BusinessAcceptsCreditCards": "True", "RestaurantsPriceRange2": "1", "BusinessParking": "{'garage': False, 'street': False, 'validated': False, 'lot': True, 'valet': False}", "BikeParking": "True"}, "categories": "Local Services, Community Service/Non-Profit", "hours": {"Monday": "8:0-16:0", "Tuesday": "8:0-16:0", "Wednesday": "8:0-16:0", "Thursday": "8:0-16:0", "Friday": "8:0-16:0"}}
{"business_id": "1Cz0gXFWdvtahHWlGe4lVQ", "name": "Raffi's Professional Detailing", "address": "", "city": "Charlotte", "state": "NC", "postal_code": "28277", "latitude": 35.0205658768, "longitude": -80.8308805525, "stars": 4.5, "review_count": 20, "is_open": 1, "attributes": {"BusinessAcceptsCreditCards": "True"}, "categories": "Auto Detailing, Car Wash, Automotive, Wheel & Rim Repair", "hours": {"Monday": "9:0-18:0", "Tuesday": "9:0-18:0", "Wednesday": "9:0-18:0", "Thursday": "9:0-18:0", "Friday": "9:0-18:0", "Saturday": "9:0-18:0"}}
{"business_id": "shIPnFoXrL3dFo5HLH1_HA", "name": "IDOLIZE Brows & Beauty", "address": "1235 East Blvd, Ste 70", "city": "Charlotte", "state": "NC", "postal_code": "28203", "latitude": 35.2031207, "longitude": -80.8457832, "stars": 4.5, "review_count": 98, "is_open": 1, "attributes": {"RestaurantsPriceRange2": "2", "BusinessAcceptsCreditCards": "True", "WheelchairAccessible": "True", "BusinessParking": "{'garage': False, 'street': False, 'validated': False, 'lot': True, 'valet': False}", "ByAppointmentOnly": "False", "BikeParking": "False"}, "categories": "Beauty & Spas, Threading Services, Hair Removal, Eyelash Service, Day Spas, Skin Care", "hours": {"Monday": "10:0-20:0", "Tuesday": "10:0-20:0", "Wednesday": "10:0-20:0", "Thursday": "10:0-20:0", "Friday": "10:0-20:0", "Saturday": "10:0-20:0", "Sunday": "12:0-18:0"}}